[
  {
    "id": 1,
    "location": "Marina Beach, Chennai",
    "state": "Tamil Nadu",
    "latitude": 13.0475,
    "longitude": 80.2824,
    "grainSize": 0.35,
    "temperature": 28.5,
    "humidity": 75,
    "deviceId": "CAM-001",
    "timestamp": "2024-01-15T10:30:00Z",
    "beachType": "Fine Sand"
  },
  {
    "id": 2,
    "location": "Calangute Beach, Goa",
    "state": "Goa",
    "latitude": 15.5430,
    "longitude": 73.7551,
    "grainSize": 0.52,
    "temperature": 30.2,
    "humidity": 68,
    "deviceId": "CAM-002",
    "timestamp": "2024-01-16T14:15:00Z",
    "beachType": "Medium Sand"
  },
  {
    "id": 3,
    "location": "Kovalam Beach, Kerala",
    "state": "Kerala",
    "latitude": 8.4004,
    "longitude": 76.9784,
    "grainSize": 0.28,
    "temperature": 29.8,
    "humidity": 82,
    "deviceId": "CAM-003",
    "timestamp": "2024-01-17T09:45:00Z",
    "beachType": "Fine Sand"
  },
  {
    "id": 4,
    "location": "Puri Beach, Odisha",
    "state": "Odisha",
    "latitude": 19.8135,
    "longitude": 85.8312,
    "grainSize": 0.45,
    "temperature": 27.3,
    "humidity": 78,
    "deviceId": "CAM-004",
    "timestamp": "2024-01-18T11:20:00Z",
    "beachType": "Medium Sand"
  },
  {
    "id": 5,
    "location": "Digha Beach, West Bengal",
    "state": "West Bengal",
    "latitude": 21.6274,
    "longitude": 87.5233,
    "grainSize": 0.38,
    "temperature": 26.7,
    "humidity": 80,
    "deviceId": "CAM-005",
    "timestamp": "2024-01-19T16:30:00Z",
    "beachType": "Fine Sand"
  },
  {
    "id": 6,
    "location": "Juhu Beach, Mumbai",
    "state": "Maharashtra",
    "latitude": 19.0990,
    "longitude": 72.8265,
    "grainSize": 0.62,
    "temperature": 31.5,
    "humidity": 65,
    "deviceId": "CAM-006",
    "timestamp": "2024-01-20T13:10:00Z",
    "beachType": "Coarse Sand"
  },
  {
    "id": 7,
    "location": "Radhanagar Beach, Andaman",
    "state": "Andaman & Nicobar",
    "latitude": 11.9416,
    "longitude": 92.9376,
    "grainSize": 0.25,
    "temperature": 28.9,
    "humidity": 85,
    "deviceId": "CAM-007",
    "timestamp": "2024-01-21T08:45:00Z",
    "beachType": "Very Fine Sand"
  },
  {
    "id": 8,
    "location": "Baga Beach, Goa",
    "state": "Goa",
    "latitude": 15.5557,
    "longitude": 73.7516,
    "grainSize": 0.48,
    "temperature": 29.5,
    "humidity": 70,
    "deviceId": "CAM-008",
    "timestamp": "2024-01-22T12:00:00Z",
    "beachType": "Medium Sand"
  },
  {
    "id": 9,
    "location": "Varkala Beach, Kerala",
    "state": "Kerala",
    "latitude": 8.7379,
    "longitude": 76.7160,
    "grainSize": 0.33,
    "temperature": 28.1,
    "humidity": 79,
    "deviceId": "CAM-009",
    "timestamp": "2024-01-23T15:25:00Z",
    "beachType": "Fine Sand"
  },
  {
    "id": 10,
    "location": "Pondicherry Beach",
    "state": "Puducherry",
    "latitude": 11.9139,
    "longitude": 79.8145,
    "grainSize": 0.41,
    "temperature": 27.8,
    "humidity": 76,
    "deviceId": "CAM-010",
    "timestamp": "2024-01-24T10:15:00Z",
    "beachType": "Fine Sand"
  },
  {
    "id": 11,
    "location": "Mandarmani Beach, West Bengal",
    "state": "West Bengal",
    "latitude": 21.6588,
    "longitude": 87.7854,
    "grainSize": 0.39,
    "temperature": 26.9,
    "humidity": 77,
    "deviceId": "CAM-011",
    "timestamp": "2024-01-25T09:30:00Z",
    "beachType": "Fine Sand"
  },
  {
    "id": 12,
    "location": "Mahabalipuram Beach, Tamil Nadu",
    "state": "Tamil Nadu",
    "latitude": 12.6269,
    "longitude": 80.1927,
    "grainSize": 0.44,
    "temperature": 29.2,
    "humidity": 73,
    "deviceId": "CAM-012",
    "timestamp": "2024-01-26T11:45:00Z",
    "beachType": "Medium Sand"
  },
  {
    "id": 13,
    "location": "Gokarna Beach, Karnataka",
    "state": "Karnataka",
    "latitude": 14.5492,
    "longitude": 74.3200,
    "grainSize": 0.36,
    "temperature": 29.7,
    "humidity": 74,
    "deviceId": "CAM-013",
    "timestamp": "2024-01-27T08:20:00Z",
    "beachType": "Fine Sand"
  },
  {
    "id": 14,
    "location": "Chandipur Beach, Odisha",
    "state": "Odisha",
    "latitude": 21.4500,
    "longitude": 87.0833,
    "grainSize": 0.42,
    "temperature": 27.1,
    "humidity": 81,
    "deviceId": "CAM-014",
    "timestamp": "2024-01-28T13:45:00Z",
    "beachType": "Medium Sand"
  },
  {
    "id": 15,
    "location": "Dhanushkodi Beach, Tamil Nadu",
    "state": "Tamil Nadu",
    "latitude": 9.1833,
    "longitude": 79.4167,
    "grainSize": 0.31,
    "temperature": 30.1,
    "humidity": 78,
    "deviceId": "CAM-015",
    "timestamp": "2024-01-29T16:10:00Z",
    "beachType": "Fine Sand"
  },
  {
    "id": 16,
    "location": "Alibaug Beach, Maharashtra",
    "state": "Maharashtra",
    "latitude": 18.6414,
    "longitude": 72.8722,
    "grainSize": 0.55,
    "temperature": 30.8,
    "humidity": 67,
    "deviceId": "CAM-016",
    "timestamp": "2024-01-30T11:30:00Z",
    "beachType": "Medium Sand"
  },
  {
    "id": 17,
    "location": "Alleppey Beach, Kerala",
    "state": "Kerala",
    "latitude": 9.4981,
    "longitude": 76.3388,
    "grainSize": 0.29,
    "temperature": 28.6,
    "humidity": 83,
    "deviceId": "CAM-017",
    "timestamp": "2024-01-31T14:55:00Z",
    "beachType": "Fine Sand"
  },
  {
    "id": 18,
    "location": "Karwar Beach, Karnataka",
    "state": "Karnataka",
    "latitude": 14.8167,
    "longitude": 74.1333,
    "grainSize": 0.47,
    "temperature": 29.3,
    "humidity": 72,
    "deviceId": "CAM-018",
    "timestamp": "2024-02-01T09:15:00Z",
    "beachType": "Medium Sand"
  },
  {
    "id": 19,
    "location": "Gopalpur Beach, Odisha",
    "state": "Odisha",
    "latitude": 19.2667,
    "longitude": 84.9000,
    "grainSize": 0.40,
    "temperature": 27.9,
    "humidity": 79,
    "deviceId": "CAM-019",
    "timestamp": "2024-02-02T12:40:00Z",
    "beachType": "Fine Sand"
  },
  {
    "id": 20,
    "location": "Kanyakumari Beach, Tamil Nadu",
    "state": "Tamil Nadu",
    "latitude": 8.0883,
    "longitude": 77.5385,
    "grainSize": 0.34,
    "temperature": 29.4,
    "humidity": 80,
    "deviceId": "CAM-020",
    "timestamp": "2024-02-03T15:20:00Z",
    "beachType": "Fine Sand"
  }
]